[{"title": "ALPPICA/HDL (2123)", "location": {"lat": "60.1857562", "lng": "24.9468756"}, "website": "http://www.amica.fi/diakonissalaitos"}, {"title": "ARCADA/YRKESH\u00d6GSKOLAN ARCADA (3003)", "location": {"lat": "60.201134", "lng": "24.9657424"}, "website": "http://www.amica.fi/arcada"}, {"title": "AURORAN SAIRAALA, RAVINTOLA (9535200002)", "location": {"lat": "60.1950342", "lng": "24.9271867966774"}, "website": "https://www.hel.fi/palvelukeskus/fi/ateriapalvelut/"}, {"title": "BIOMEDICUMIN PALVELUKEITTI\u00d6", "location": {"lat": "51.82272", "lng": "14.4034"}, "website": ""}, {"title": "CAFE KORONA", "location": {"lat": "60.2273463", "lng": "25.012731"}, "website": ""}, {"title": "DIAK KALASATAMA KAMPUS/DIAKONIA AMK(3104)", "location": {"lat": "60.1990818", "lng": "24.9692110270128"}, "website": "http://www.fazerfoodco.fi/diak-kalasatama"}, {"title": "HERTTONIEMEN SAIRAALA, RAVINTOLA (9535200001)", "location": {"lat": "60.20741595", "lng": "25.0361685509973"}, "website": "https://www.hel.fi/palvelukeskus/fi/ateriapalvelut/"}, {"title": "IHO- JA ALLERGIASAIRAALA, PALVELUKEITTI\u00d6", "location": {"lat": "51.82272", "lng": "14.4034"}, "website": ""}, {"title": "JAKELUPISTE BISTRO/OPETUSTALO", "location": {"lat": "60.2016536", "lng": "24.9342093"}, "website": "http://www.fazerfoodco.fi/opetustalo"}, {"title": "JAMIPAJA/POP & JAZZ KONSERVATORIO(3007)", "location": {"lat": "60.2073965", "lng": "24.9753929390977"}, "website": "http://www.fazerfoodco.fi/jamipaja"}, {"title": "KIRURGISEN SAIRAALAN PALVELUKEITTI\u00d6", "location": {"lat": "60.16156485", "lng": "24.9493929532008"}, "website": ""}, {"title": "KIVEL\u00c4N RAVINTOKESKUS", "location": {"lat": "60.20787", "lng": "24.99935"}, "website": "https://www.hel.fi/palvelukeskus/fi/ateriapalvelut/"}, {"title": "KOSKELAN MONIPUOLINEN PALVELUKESKUS", "location": {"lat": "60.2157233", "lng": "24.96400675"}, "website": "https://www.hel.fi/palvelukeskus/fi/ateriapalvelut/"}, {"title": "LAAKSON SAIRAALA, RAVINTOLA (9535200002)", "location": {"lat": "60.1907441", "lng": "24.9186978604984"}, "website": "https://www.hel.fi/palvelukeskus/fi/ateriapalvelut/"}, {"title": "MALMICA / PERHO LIIKETALOUSOPISTO (3092)", "location": {"lat": "60.2495312", "lng": "25.0127391"}, "website": "http://www.amica.fi/malmica"}, {"title": "MALMIN SAIRAALA, RAVINTOLA (9535200004)", "location": {"lat": "60.2534533", "lng": "24.9984953002979"}, "website": "https://www.hel.fi/palvelukeskus/fi/ateriapalvelut/"}, {"title": "MEILAHTI, RUOKAPALVELUT", "location": {"lat": "51.82272", "lng": "14.4034"}, "website": ""}, {"title": "METROPOLIA H\u00c4MEENTIE", "location": {"lat": "60.21444545", "lng": "24.980658064505"}, "website": "http://www.sodexo.fi"}, {"title": "METROPOLIA MYLLYPURO", "location": {"lat": "60.22362705", "lng": "25.0780124140173"}, "website": ""}, {"title": "METROPOLIA VANHA VIERTOTIE", "location": {"lat": "60.212024", "lng": "24.881546"}, "website": "http://www.sodexo.fi"}, {"title": "MUSIIKKITALON RAVINTOLA", "location": {"lat": "60.1692419", "lng": "24.9396787"}, "website": ""}, {"title": "OSAKUNTABAARI", "location": {"lat": "60.1684759", "lng": "24.9323458"}, "website": "http://www.hamalais-osakunta.fi"}, {"title": "P\u00c4\u00c4RAIDE/OPETUSTALO (0083)", "location": {"lat": "60.2018773", "lng": "24.9353841"}, "website": "http://www.fazerfoodco.fi/opetustalo"}, {"title": "RAVINTOLA CAFFELI (3407)", "location": {"lat": "60.2179279", "lng": "24.9065251"}, "website": "https://www.fazerfoodco.fi/caffeli"}, {"title": "RAVINTOLA KONSERVATORIO", "location": {"lat": "60.1622466", "lng": "24.9148484298538"}, "website": "https://ruoka.palmia.fi/fi/"}, {"title": "RAVINTOLA LADONLUKKO (FI119179)", "location": {"lat": "60.2289819", "lng": "25.0184561"}, "website": "http://www.sodexo.fi"}, {"title": "RAVINTOLA LUOVA", "location": {"lat": "60.2038546", "lng": "24.9688544"}, "website": ""}, {"title": "RAVINTOLA SERPENS (YTHS)", "location": {"lat": "60.1774274", "lng": "24.9283695"}, "website": ""}, {"title": "RAVINTOLA VALKEA TALO (FI129274)", "location": {"lat": "60.2216437", "lng": "24.9020798"}, "website": "http://www.sodexo.fi"}, {"title": "SAVOR", "location": {"lat": "60.1971663", "lng": "24.9481058"}, "website": ""}, {"title": "SUURSUON SAIRAALA, RAVINTOLA (9535200003)", "location": {"lat": "60.2342498", "lng": "24.9314857"}, "website": "https://www.hel.fi/palvelukeskus/fi/ateriapalvelut/"}, {"title": "SVENSKA HANDELSH\u00d6GSKOLAN (3406)", "location": {"lat": "60.1711596", "lng": "24.9242355"}, "website": "https://www.fazerfoodco.fi/hanken"}, {"title": "TEATTERIKORKEAKOULU (3067)", "location": {"lat": "60.18140235", "lng": "24.9594425090453"}, "website": "http://www.fazerfoodco.fi/teatterikorkeakoulu"}, {"title": "T\u00c4HK\u00c4/ HELSINGIN YLIOPISTO (0061)", "location": {"lat": "60.2229983", "lng": "25.0193053"}, "website": "http://www.amica.fi/tahka"}, {"title": "T\u00d6\u00d6L\u00d6N SAIRAALA, RUOKAPALVELUT", "location": {"lat": "51.82272", "lng": "14.4034"}, "website": ""}, {"title": "UNICAFE BIOKESKUS", "location": {"lat": "60.2270409", "lng": "25.014129"}, "website": ""}, {"title": "UNICAFE CHEMICUM", "location": {"lat": "60.2055999", "lng": "24.9639498"}, "website": ""}, {"title": "UNICAFE EXACTUM", "location": {"lat": "60.2048979", "lng": "24.9628913"}, "website": ""}, {"title": "UNICAFE MEILAHTI", "location": {"lat": "60.1901726", "lng": "24.9094805"}, "website": ""}, {"title": "UNICAFE METS\u00c4TALO", "location": {"lat": "60.171809", "lng": "24.9490329"}, "website": ""}, {"title": "UNICAFE OLIVIA", "location": {"lat": "60.175122", "lng": "24.9545739"}, "website": ""}, {"title": "UNICAFE PHYSICUM", "location": {"lat": "60.2048979", "lng": "24.9628913"}, "website": ""}, {"title": "UNICAFE PORTHANIA & PORTAALI", "location": {"lat": "60.17029575", "lng": "24.9484076540097"}, "website": ""}, {"title": "UNICAFE P\u00c4\u00c4RAKENNUS & FREDRIKA", "location": {"lat": "60.1703007", "lng": "24.9537675"}, "website": ""}, {"title": "UNICAFE ROTUNDA", "location": {"lat": "60.1703427", "lng": "24.950251915088"}, "website": ""}, {"title": "UNICAFE RUSKEASUO", "location": {"lat": "60.2057513", "lng": "24.8972744"}, "website": ""}, {"title": "UNICAFE SOC & KOM", "location": {"lat": "60.20787", "lng": "24.99935"}, "website": ""}, {"title": "UNICAFE TOPELIAS", "location": {"lat": "60.1720173", "lng": "24.9503911"}, "website": ""}, {"title": "UNICAFE VIIKUNA", "location": {"lat": "60.2295647", "lng": "25.0214932"}, "website": ""}, {"title": "UNICAFE YLIOPPILASAUKIO", "location": {"lat": "60.1691803", "lng": "24.940796"}, "website": ""}]