[{"title": "ARMILAN SAIRAALA, RAVINTOLA LOUNASKEIDAS", "address": "ARMILANKATU 44, 53100 LAPPEENRANTA", "website": "", "location": {"lat": "61.0598999", "lng": "28.2115004"}}, {"title": "ETEL\u00c4-KARJALAN KESKUSSAIRAALA, RAVINTOLA VALTO", "address": "VALTO K\u00c4KEL\u00c4N KATU 1, 53130 LAPPEENRANTA", "website": "", "location": {"lat": "61.0645776", "lng": "28.210252542349"}}, {"title": "INDIANA CURRY (LUT)", "address": "SKINNARILANKATU 34, 53850 LAPPEENRANTA", "website": "", "location": {"lat": "61.0648969", "lng": "28.0938256"}}, {"title": "RAVINTOLA LASERI", "address": "LASERKATU 6, 53850 LAPPEENRANTA", "website": "http://www.aalef.fi", "location": {"lat": "61.0621534", "lng": "28.0966056"}}, {"title": "RAVINTOLA LUT BUFFET", "address": "SKINNARILANKATU 34, 53850 LAPPEENRANTA", "website": "", "location": {"lat": "61.0648969", "lng": "28.0938256"}}, {"title": "RAVINTOLA SKINNARILA", "address": "SKINNARILANKATU 36, 53850 LAPPEENRANTA", "website": "", "location": {"lat": "61.0663062", "lng": "28.0920527005931"}}, {"title": "YLIOPPILASTALON RAVINTOLA", "address": "LASERKATU 10, 53850 LAPPEENRANTA", "website": "http://www.aalef.fi", "location": {"lat": "61.0639885", "lng": "28.0960048"}}, {"title": "EVENTTI (3533)", "address": "KIRKKOKATU 23, 60220 SEIN\u00c4JOKI", "website": "https://www.fazerfoodco.fi/", "location": {"lat": "62.7850137", "lng": "22.8307949"}}, {"title": "RUOKASALI PIHLAJA", "address": "HANNEKSENRINNE 7, 60220 SEIN\u00c4JOKI", "website": "", "location": {"lat": "62.7731926", "lng": "22.8281356"}}, {"title": "RUOKASALI TROPPI", "address": "KOSKENALANTIE 16, 60220 SEIN\u00c4JOKI", "website": "", "location": {"lat": "62.7765033", "lng": "22.8247841"}}, {"title": "RUOKASALI VAAHTERA", "address": "HUHTALANTIE 53, 60220 SEIN\u00c4JOKI", "website": "", "location": {"lat": "62.7831272", "lng": "22.8215518"}}, {"title": "SEDU KOSKENALANTIE (FI419316)", "address": "KOSKENALANTIE 17, 60220 SEIN\u00c4JOKI", "website": "http://www.sodexo.fi", "location": {"lat": "62.7739647", "lng": "22.8181067"}}, {"title": "SEIN\u00c4JOEN AMK, FRAMI F (FI419310)", "address": "KAMPUSRANTA 11, 60320 SEIN\u00c4JOKI", "website": "http://www.sodexo.fi", "location": {"lat": "62.7893739", "lng": "22.8206754"}}, {"title": "SEIN\u00c4JOEN AMK, KAMPUSTALO (FI419311)", "address": "KALEVANKATU 35, 60100 SEIN\u00c4JOKI", "website": "http://www.sodexo.fi", "location": {"lat": "62.7892352", "lng": "22.8256585"}}, {"title": "RAVINTOLA LEIV\u00c4NSYRJ\u00c4", "address": "SAIRAALANTIE 4, 63700 \u00c4HT\u00c4RI", "website": "", "location": {"lat": "62.553965", "lng": "24.0725702"}}, {"title": "KAMPUS. MIKKELIN YLIOPISTOKESKUS (0393)", "address": "L\u00d6NNROTINKATU 5, 50100 MIKKELI", "website": "http://www.amica.fi/ravintolakampus", "location": {"lat": "61.6910055", "lng": "27.2636763"}, "lunchUrl": "https://www.fazerfoodco.fi/modules/json/json/Index?costNumber=0393&language=fi"}, {"title": "MIKKELIN KESKUSSAIRAALA, RUOKAPALVELUT", "address": "PORRASSALMENKATU 35-37, 50100 MIKKELI", "website": "", "location": {"lat": "61.6915573", "lng": "27.2782831052893"}}, {"title": "MOISION SAIRAALAN HENKIL\u00d6KUNTARAVINTOLA", "address": "MOISIONTIE 10, 50520 MIKKELI", "website": "", "location": {"lat": "61.6555139", "lng": "27.278491555335"}}, {"title": "RAVINTOLA DEXI", "address": "PATTERISTONKATU 3, 50100 MIKKELI", "website": "", "location": {"lat": "61.6802604", "lng": "27.2597679"}}, {"title": "RAVINTOLA KASARMINA", "address": "PATTERISTONKATU 3 B-RAK., 50100 MIKKELI", "website": "", "location": {"lat": "61.679646", "lng": "27.261382"}}, {"title": "RAVINTOLA STADIUMI", "address": "RAVIRADANTIE 24, 50100 MIKKELI", "website": "", "location": {"lat": "61.7004447", "lng": "27.248453"}}, {"title": "OPISKELIJARAVINTOLA VIIKUNA", "address": "HUVILAKATU 31, 76130 PIEKS\u00c4M\u00c4KI", "website": "http://www.sisop.fi", "location": {"lat": "62.3026562", "lng": "27.1285588"}}, {"title": "LOUNASRAVINTOLA SYD\u00c4NYST\u00c4V\u00c4", "address": "KESKUSSAIRAALANTIE 6, 57120 SAVONLINNA", "website": "http://www.isshp.fi", "location": {"lat": "61.8711343", "lng": "28.8533955647088"}}, {"title": "RAVINTOLA KAARI", "address": "SAVONNIEMENKATU 6, 57100 SAVONLINNA", "website": "", "location": {"lat": "61.8665452", "lng": "28.8788887"}}, {"title": "OPISKELIJARAVINTOLA FOX", "address": "KETUNPOLKU 1, 87100 KAJAANI", "website": "", "location": {"lat": "64.2167807", "lng": "27.7168533"}}, {"title": "RAVINTOKESKUS T\u00c4HK\u00c4", "address": "SATAMAKATU 2 A, 87100 KAJAANI", "website": "", "location": {"lat": "64.2290051", "lng": "27.7195006"}}, {"title": "RAVINTOLA MAMSELLIINA", "address": "SOTKAMONTIE 13, 87100 KAJAANI", "website": "", "location": {"lat": "64.213892", "lng": "27.7281560161542"}}, {"title": "TUUPALAN KOULUN RUOKASALI", "address": "KAINUUNTIE 118, 88900 KUHMO", "website": "", "location": {"lat": "64.1232521", "lng": "29.5085137546591"}}, {"title": "APAJA", "address": "KESKUSKATU 11, 88600 SOTKAMO", "website": "", "location": {"lat": "64.13321775", "lng": "28.3920352875949"}}, {"title": "VIRASTOTALON RUOKALA", "address": "KAUPPAKATU 20, 89600 SUOMUSSALMI", "website": "", "location": {"lat": "64.8836512", "lng": "28.9083285"}}, {"title": "FORSSAN RUOKALA, KOSTHOLLI", "address": "WAHRENINKATU 11 E, 30100 FORSSA", "website": "http://www.hamk.fi", "location": {"lat": "60.8148828", "lng": "23.6208131"}}, {"title": "LOUNASRAVINTOLA SAHERA", "address": "URHEILUKENT\u00c4NKATU 9, 30100 FORSSA", "website": "", "location": {"lat": "60.8239031", "lng": "23.639226"}}, {"title": "LEPAAN RUOKALA, ANNA", "address": "LEPAANTIE 129, 14610 LEPAA", "website": "http://www.hamk.fi", "location": {"lat": "61.11495065", "lng": "24.3250413607006"}}, {"title": "EVON RUOKALA", "address": "SAARELANTIE 1, 16970 EVO", "website": "http://www.hamk.fi", "location": {"lat": "61.1946468", "lng": "25.1076825"}}, {"title": "HAMK VISAM\u00c4KI", "address": "VANKANL\u00c4HDE 11, 13500 H\u00c4MEENLINNA", "website": "http://www.sodexo.fi", "location": {"lat": "60.9768909", "lng": "24.4798999"}}, {"title": "LAMMIN BIOLOGINEN ASEMA", "address": "P\u00c4\u00c4J\u00c4RVENTIE 320, 16900 LAMMI", "website": "http://www.helsinki.fi/ml/lammi/", "location": {"lat": "61.0537188", "lng": "25.041193"}}, {"title": "SAIRAALAN KEITTI\u00d6 H\u00c4MEENLINNA", "address": "AHVENISTONTIE 20, 13530 H\u00c4MEENLINNA", "website": "", "location": {"lat": "60.98837755", "lng": "24.4162897961355"}}, {"title": "SAIRAALAN KEITTI\u00d6 RIIHIM\u00c4KI", "address": "KONTIENTIE 77, 11120 RIIHIM\u00c4KI", "website": "", "location": {"lat": "60.740545", "lng": "24.765754"}}, {"title": "SODEXO KAHVILA JA RAVINTOLA ROBOTTI", "address": "KAARTOKATU 2, 11100 RIIHIM\u00c4KI", "website": "http://www.sodexo.fi", "location": {"lat": "60.734041", "lng": "24.7608788"}}, {"title": "MUSTIALAN RUOKALA, HUTTULA", "address": "HUTTULANTIE 3, 31310 MUSTIALA", "website": "http://www.hamk.fi", "location": {"lat": "60.8192461", "lng": "23.769669"}}, {"title": "CENTRIA AMK", "address": "TALONPOJANKATU 2, 67100 KOKKOLA", "website": "", "location": {"lat": "63.83366125", "lng": "23.1620681738021"}}, {"title": "LOUNASRAVINTOLA KIPPO", "address": "MARIANKATU 16-20, 67200 KOKKOLA", "website": "", "location": {"lat": "63.8382728", "lng": "23.1037773"}}, {"title": "AIMO (0350)", "address": "ASEKATU 3, 40100 JYV\u00c4SKYL\u00c4", "website": "https://www.fazerfoodco.fi/aimo/", "location": {"lat": "62.2478381", "lng": "25.7643251"}, "lunchUrl": "https://www.fazerfoodco.fi/modules/json/json/Index?costNumber=0350&language=fi"}, {"title": "ALKIO-OPISTON OPISKELIJARAVINTOLA SANTERI", "address": "T\u00c4HTINIEMENTIE 26, 41800 KORPILAHTI", "website": "", "location": {"lat": "62.0142918", "lng": "25.5490996"}}, {"title": "FIILU (3364)", "address": "PIIPPUKATU 11, 40100 JYV\u00c4SKYL\u00c4", "website": "https://www.fazerfoodco.fi/fiilu/", "location": {"lat": "62.2411328", "lng": "25.7593833"}, "lunchUrl": "https://www.fazerfoodco.fi/modules/json/json/Index?costNumber=3364&language=fi"}, {"title": "JAMK RAVINTOLA DYNAMO (FI719348)", "address": "PIIPPUKATU 2-3, 40100 JYV\u00c4SKYL\u00c4", "website": "http://www.sodexo.fi", "location": {"lat": "62.2411328", "lng": "25.7593833"}}, {"title": "JAMK RAVINTOLA P\u00c4\u00c4KAMPUS (FI719345)", "address": "RAJAKATU 35, 40200 JYV\u00c4SKYL\u00c4", "website": "http://www.sodexo.fi", "location": {"lat": "62.2511956", "lng": "25.7422652958419"}}, {"title": "JAMK RAVINTOLA RAJACAFE (FI719346)", "address": "RAJAKATU 35, 40200 JYV\u00c4SKYL\u00c4", "website": "http://www.sodexo.fi", "location": {"lat": "62.2511956", "lng": "25.7422652958419"}}, {"title": "KAHVILA KVARKKI", "address": "SURVONTIE 9 YK-RAK., 40500 JYV\u00c4SKYL\u00c4", "website": "http://www.semma.fi", "location": {"lat": "62.229537", "lng": "25.740411"}}, {"title": "KAHVILA-RAVINTOLA CATERINA", "address": "KESKUSSAIRAALANTIE 19, 40620 JYV\u00c4SKYL\u00c4", "website": "", "location": {"lat": "62.2295584", "lng": "25.7106559478048"}}, {"title": "KATRIINAN KASVISRAVINTOLA", "address": "KAUPPAKATU 11, 40100 JYV\u00c4SKYL\u00c4", "website": "", "location": {"lat": "62.2397471", "lng": "25.74110125"}}, {"title": "LOUNASRAVINTOLA ILOKIVI", "address": "KESKUSSAIRAALANTIE 2, 40600 JYV\u00c4SKYL\u00c4", "website": "http://www.co.jyu.fi/~jyy", "location": {"lat": "62.2349483", "lng": "25.7307924"}}, {"title": "OPISKELIJAKAHVILA SYKE", "address": "KESKUSSAIRAALANTIE 4 L-RAK., 40600 JYV\u00c4SKYL\u00c4", "website": "http://www.semma.fi", "location": {"lat": "62.232328", "lng": "25.718094"}}, {"title": "RAVINTOLA LIBRI", "address": "SEMINAARINKATU 15 B-RAK., 40100 JYV\u00c4SKYL\u00c4", "website": "http://www.semma.fi", "location": {"lat": "62.237829", "lng": "25.736216"}}, {"title": "RAVINTOLA LOZZI", "address": "KESKUSSAIRAALANTIE 4 (P-RAK.), 40600 JYV\u00c4SKYL\u00c4", "website": "http://www.semma.fi", "location": {"lat": "62.232328", "lng": "25.718094"}}, {"title": "RAVINTOLA MAIJA", "address": "AHLMANINKATU 2 (MA A-RAK.), 40100 JYV\u00c4SKYL\u00c4", "website": "http://www.semma.fi", "location": {"lat": "62.230993", "lng": "25.733789"}}, {"title": "RAVINTOLA PIATO", "address": "MATTILANNIEMI 2, 40100 JYV\u00c4SKYL\u00c4", "website": "http://www.semma.fi", "location": {"lat": "62.23223325", "lng": "25.7370229449056"}}, {"title": "RAVINTOLA TILIA", "address": "SEMINAARINKATU 15 T-RAK., 40100 JYV\u00c4SKYL\u00c4", "website": "http://www.semma.fi", "location": {"lat": "62.237829", "lng": "25.736216"}}, {"title": "RAVINTOLA UNO", "address": "ALVAR AALLON KATU 9, 40600 JYV\u00c4SKYL\u00c4", "website": "http://www.semma.fi", "location": {"lat": "62.23399235", "lng": "25.7331783297379"}}, {"title": "RAVINTOLA YLIST\u00d6", "address": "SURVONTIE 9 YFL-RAK., 40500 JYV\u00c4SKYL\u00c4", "website": "http://www.semma.fi", "location": {"lat": "62.229528", "lng": "25.743413"}}, {"title": "RENTUKKA", "address": "TAITONIEKANTIE 9, 40740 JYV\u00c4SKYL\u00c4", "website": "http://www.semma.fi", "location": {"lat": "62.248319", "lng": "25.7090816"}}, {"title": "SILTAVOUTI (0321)", "address": "MATARANKATU 4, 40100 JYV\u00c4SKYL\u00c4", "website": "http://www.amica.fi/siltavouti", "location": {"lat": "62.2482881", "lng": "25.7589"}, "lunchUrl": "https://www.fazerfoodco.fi/modules/json/json/Index?costNumber=0321&language=fi"}, {"title": "KONNEVEDEN TUTKIMUSASEMA", "address": "SIRKKAM\u00c4ENTIE 220, 44300 KONNEVESI", "website": "", "location": {"lat": "62.6257384", "lng": "26.3323325"}}, {"title": "RUUSALIISAN RUOKASALI", "address": "MAIJANKUJA 2, 44300 KONNEVESI", "website": "", "location": {"lat": "62.6285586", "lng": "26.2875509"}}, {"title": "RUOKALA T\u00c4HK\u00c4", "address": "UURAISTENTIE 240, 43130 TARVAALA", "website": "http://www.poke.fi", "location": {"lat": "62.6664308", "lng": "25.3098895"}}, {"title": "RAVINTOLA JUNNU", "address": "P\u00c4\u00c4SKYSENTIE 1, 48220 KOTKA", "website": "", "location": {"lat": "60.48722165", "lng": "26.8925581281393"}}, {"title": "KASARMIRAVINTOLA (3548)", "address": "PARAATIKENTT\u00c4 5, 45100 KOUVOLA", "website": "https://www.fazerfoodco.fi/kasarmiravintola", "location": {"lat": "60.8735938", "lng": "26.6814484"}, "lunchUrl": "https://www.fazerfoodco.fi/modules/json/json/Index?costNumber=3548&language=fi"}, {"title": "RAVINTOLA PAJA", "address": "KUUSELANKATU 1, 45100 KOUVOLA", "website": "", "location": {"lat": "60.87248835", "lng": "26.6794648549903"}}, {"title": "KILPISJ\u00c4RVEN BIOLOGINEN ASEMA", "address": "K\u00c4SIVARRENTIE 14622, 99490 KILPISJ\u00c4RVI", "website": "", "location": {"lat": "69.0438593", "lng": "20.8025591711258"}}, {"title": "HENKIL\u00d6ST\u00d6RAVINTOLA MERI", "address": "KAUPPAKATU 25, 94100 KEMI", "website": "http://www.kemi.fi", "location": {"lat": "65.7350577", "lng": "24.5607437"}}, {"title": "RAVINTOLA AURINKO", "address": "TIETOKATU 1, 94600 KEMI", "website": "", "location": {"lat": "65.75447965", "lng": "24.5813774728442"}}, {"title": "ALUEKEITTI\u00d6 1:N OPPILASRAVINTOLA", "address": "SEMINAARINKATU 10, 98120 KEMIJ\u00c4RVI", "website": "", "location": {"lat": "66.7193766", "lng": "27.3924565"}}, {"title": "FELLI/ LAPIN YLIOPISTO (0602)", "address": "YLIOPISTONKATU 8, 96300 ROVANIEMI", "website": "http://www.fazerfoodco.fi/felli", "location": {"lat": "66.4856234", "lng": "25.7185684485149"}, "lunchUrl": "https://www.fazerfoodco.fi/modules/json/json/Index?costNumber=0602&language=fi"}, {"title": "KAHVILA LOVISA", "address": "YLIOPISTONKATU 8, 96300 ROVANIEMI", "website": "", "location": {"lat": "66.4856234", "lng": "25.7185684485149"}}, {"title": "KUUKKELI/ VIRASTOTALO ROVANIEMI (0601)", "address": "HALLITUSKATU 3 A, 96100 ROVANIEMI", "website": "http://www.fazerfoodco.fi/kuukkeli", "location": {"lat": "66.4996389", "lng": "25.7160398"}, "lunchUrl": "https://www.fazerfoodco.fi/modules/json/json/Index?costNumber=0601&language=fi"}, {"title": "LAPIN KESKUSSAIRAALA", "address": "OUNASRINTEENTIE 22, 96400 ROVANIEMI", "website": "", "location": {"lat": "66.4938767", "lng": "25.7749863"}}, {"title": "LAPIN YO:N HARJOITTELUKOULU LUMIKELLO (0603)", "address": "POHJOLANKATU 23, 96100 ROVANIEMI", "website": "https://www.fazerfoodco.fi/", "location": {"lat": "66.5036303", "lng": "25.7175342165328"}}, {"title": "LUMIKELLO/ LAPIN YLIOPISTO HARJOITTELUKOULU (0603)", "address": "POHJOLANKATU 23, 96100 ROVANIEMI", "website": "http://www.amica.fi/lumikello", "location": {"lat": "66.5036303", "lng": "25.7175342165328"}, "lunchUrl": "https://www.fazerfoodco.fi/modules/json/json/Index?costNumber=0603&language=fi"}, {"title": "OPISKELIJARAVINTOLA TEKUILA", "address": "JOKIV\u00c4YL\u00c4 11, 96300 ROVANIEMI", "website": "http://www.redu.fi", "location": {"lat": "66.48102825", "lng": "25.7215450246667"}}, {"title": "PSYKIATRIAN KLINIKAN HENKIL\u00d6ST\u00d6RAVINTOLA", "address": "TOTONTIE 9, 97145 TOTONVAARA", "website": "", "location": {"lat": "66.37557", "lng": "25.367514"}}, {"title": "RAVINTOLA PUHTI", "address": "HIIHTOMAJANTIE 2, 96400 ROVANIEMI", "website": "", "location": {"lat": "66.4974224", "lng": "25.7633779"}}, {"title": "RAVINTOLA PIKANTTI", "address": "URHEILUKATU 6, 95400 TORNIO", "website": "", "location": {"lat": "65.8517416", "lng": "24.1416519"}}, {"title": "LAPIN TUTKIMUSLAITOS KEVO", "address": "A 777 KEVO, 99980 UTSJOKI", "website": "", "location": {"lat": "69.7567713", "lng": "27.0093082"}}, {"title": "HYYTI\u00c4L\u00c4N METS\u00c4ASEMA", "address": "HYYTI\u00c4L\u00c4NTIE 124, 35500 KORKEAKOSKI", "website": "http://www.honeybee.helsinki.fi/hyytiala/", "location": {"lat": "61.75", "lng": "21.63333"}}, {"title": "M\u00c4NT\u00c4N SEUDUN KOULUTUSKESKUS", "address": "VIRTASALMENTIE 14, 35800 M\u00c4NTT\u00c4", "website": "http://www.mantta.fi/mskk", "location": {"lat": "62.0321405", "lng": "24.6341282"}}, {"title": "CAF\u00c9 PINNI", "address": "KANSLERINRINNE 1, 33014 TAMPEREEN YLIOPISTO", "website": "http://www.juvenes.fi", "location": {"lat": "61.493617", "lng": "23.778886"}}, {"title": "CAMPUSRAVITA OY", "address": "KUNTOKATU 3, 33520 TAMPERE", "website": "", "location": {"lat": "61.5040482", "lng": "23.8098354"}}, {"title": "FINN-MEDIN RAVINTOLA", "address": "ARVO YLP\u00d6N KATU 6, 33520 TAMPERE", "website": "", "location": {"lat": "61.5059106", "lng": "23.8104234"}}, {"title": "KAMPUSAREENA/TAMPEREEN TEKNILLINEN YLIOPISTO(0810)", "address": "KORKEAKOULUNKATU 7, 33720 TAMPERE", "website": "http://www.fazerfoodco.fi/reaktori", "location": {"lat": "61.449878", "lng": "23.8587232489769"}, "lunchUrl": "https://www.fazerfoodco.fi/modules/json/json/Index?costNumber=0812&language=fi"}, {"title": "MIEKKALEIJONA", "address": "VAAJAKATU 2, 33720 TAMPERE", "website": "", "location": {"lat": "61.453048", "lng": "23.852353"}}, {"title": "MINERVA/TAMPEREEN YLIOPISTO (0815)", "address": "KANSLERINRINNE 1 B, 33100 TAMPERE", "website": "http://www.fazerfoodco.fi/minerva", "location": {"lat": "61.4946749", "lng": "23.7763876"}, "lunchUrl": "https://www.fazerfoodco.fi/modules/json/json/Index?costNumber=0815&language=fi"}, {"title": "PIRTERIA/TAMPEREEN AMMATTIKORKEAKOULU (0823)", "address": "KUNTOKATU 4, 33520 TAMPERE", "website": "http://www.amica.fi/pirteria", "location": {"lat": "61.50498925", "lng": "23.8109007367811"}, "lunchUrl": "https://www.fazerfoodco.fi/modules/json/json/Index?costNumber=0823&language=fi"}, {"title": "RAVINTOLA ARVO JA CAF\u00c9 LEA", "address": "ARVO YLP\u00d6N KATU 34, 33520 TAMPERE", "website": "http://www.juvenes.fi", "location": {"lat": "61.5066081", "lng": "23.8227221"}}, {"title": "RAVINTOLA HERTSI (FI419381)", "address": "KORKEAKOULUNKATU 1, 33720 TAMPERE", "website": "http://www.sodexo.fi", "location": {"lat": "61.4498739", "lng": "23.8559490964761"}}, {"title": "RAVINTOLA LINNA(FI438868)", "address": "KALEVANTIE 5, 33100 TAMPERE", "website": "http://www.sodexo.fi", "location": {"lat": "61.49529285", "lng": "23.7779983016016"}}, {"title": "RAVINTOLA LIVE JA CAF\u00c9 ALL BRIGHT", "address": "TOHLOPINRANTA 31, 33270 TAMPERE", "website": "http://www.juvenes.fi", "location": {"lat": "61.50712925", "lng": "23.6478066594064"}}, {"title": "RAVINTOLA NEWTON JA CAF\u00c9 KONEHUONE", "address": "KORKEAKOULUNKATU 6 A, 33720 TAMPERE", "website": "http://www.juvenes.fi", "location": {"lat": "61.44886", "lng": "23.8559036"}}, {"title": "RAVINTOLA PYYNIKKI", "address": "F.E. SILLANP\u00c4\u00c4NKATU 2, 33200 TAMPERE", "website": "", "location": {"lat": "61.4962285", "lng": "23.7420798"}}, {"title": "RAVINTOLA ZIBERIA", "address": "IT\u00c4INENKATU 9, 33210 TAMPERE", "website": "http://www.juvenes.fi", "location": {"lat": "61.5010905", "lng": "23.7589572"}}, {"title": "RESTAURANT FRENCKELL & PIHA", "address": "FRENCKELLINAUKIO 2 H, 33210 TAMPERE", "website": "http://www.juvenes.fi", "location": {"lat": "61.5003232", "lng": "23.7597448057492"}}, {"title": "TAMPEREEN NORMAALIKOULUN (0811) ALAKOULUN JAKELUPISTE", "address": "LOUNAANTIE 2, 33800 TAMPERE", "website": "", "location": {"lat": "61.484009", "lng": "23.7919049"}}, {"title": "TAMPEREEN NORMAALIKOULUN RAVINTOLA (0811)", "address": "KUOKKAMAANTIE 16, 33800 TAMPERE", "website": "http://www.amica.fi/tampereennormaalikoulu", "location": {"lat": "61.4818626", "lng": "23.7960327771586"}, "lunchUrl": "https://www.fazerfoodco.fi/modules/json/json/Index?costNumber=0811&language=fi"}, {"title": "YLIOPISTON RAVINTOLA, ALAKUPPILA, SALAATTIBAARI", "address": "KALEVANTIE 4, 33014 TAMPEREEN YLIOPISTO", "website": "http://www.juvenes.fi", "location": {"lat": "61.49412325", "lng": "23.7792067776763"}}, {"title": "HAMK VALKEAKOSKI", "address": "TIETOTIE 1, 37630 VALKEAKOSKI", "website": "http://www.sodexo.fi", "location": {"lat": "61.2794769", "lng": "23.9981105147705"}}, {"title": "KAHVILA SENTTI (0824)", "address": "TIETOTIE 1, 37630 VALKEAKOSKI", "website": "https://www.fazerfoodco.fi/", "location": {"lat": "61.2794769", "lng": "23.9981105147705"}}, {"title": "SILMU. TAMPEREEN SEUDUN AMMATTIOPISTO TREDU (0829)", "address": "METS\u00c4TIE 1, 34300 KURU", "website": "http://www.amica.fi/silmu", "location": {"lat": "61.8757261", "lng": "23.7221981"}, "lunchUrl": "https://www.fazerfoodco.fi/modules/json/json/Index?costNumber=0829&language=fi"}, {"title": "ALLEGRO CAMPUS (3862)", "address": "KAUPPIAANKATU 10, 68600 PIETARSAARI", "website": "http://www.amica.fi/allegro", "location": {"lat": "63.6737985", "lng": "22.7054752"}, "lunchUrl": "https://www.fazerfoodco.fi/modules/json/json/Index?costNumber=3862&language=fi"}, {"title": "CAF\u00c9 ANN-MARI", "address": "PB 311, STRANDGATAN 2, 65101 VAASA", "website": "", "location": {"lat": "63.098426", "lng": "21.601765"}}, {"title": "CAF\u00c9 HERMES/HANKEN (3567)", "address": "KAUPPAPUISTIKKO 2, 65100 VAASA", "website": "http://www.amica.fi/hermes", "location": {"lat": "63.0935024", "lng": "21.6180806"}, "lunchUrl": "https://www.fazerfoodco.fi/modules/json/json/Index?costNumber=3567&language=fi"}, {"title": "CAF\u00c9 OSKARI", "address": "YLIOPISTONRANTA 7, 65200 VAASA", "website": "http://www.juvenes.fi", "location": {"lat": "63.1029633", "lng": "21.5955804"}}, {"title": "CAF\u00c9 TECHNO", "address": "BOMULLSGR\u00c4ND 3, 65200 VAASA", "website": "", "location": {"lat": "63.097908", "lng": "21.639103"}}, {"title": "PSYKIATRIAN YKSIK\u00d6N RUOKASALI, VAASAN KESKUSSAIRAALA", "address": "SARJAKATU 2, 65320 VAASA", "website": "", "location": {"lat": "63.0876812", "lng": "21.6773688"}}, {"title": "RAVINTOLA ALERE JA CAF\u00c9 ALERE", "address": "WOLFFINTIE 27-31, 65200 VAASA", "website": "http://www.juvenes.fi", "location": {"lat": "63.1064218", "lng": "21.5938606048955"}}, {"title": "RAVINTOLA COTTON CLUB", "address": "YLIOPISTONRANTA 2, 65200 VAASA", "website": "", "location": {"lat": "63.1029633", "lng": "21.5955804"}}, {"title": "RAVINTOLA ERKKI", "address": "YLIOPISTONRANTA 10, 65200 VAASA", "website": "http://www.juvenes.fi", "location": {"lat": "63.1029633", "lng": "21.5955804"}}, {"title": "RAVINTOLA MATHILDA", "address": "WOLFFINTIE 34, 65200 VAASA", "website": "http://www.juvenes.fi", "location": {"lat": "63.1054255", "lng": "21.5953293"}}, {"title": "RAVINTOLA SERVERI JA CAF\u00c9 WOLFF\u00b4S STREET", "address": "WOLFFINTIE 30, 65200 VAASA", "website": "http://www.juvenes.fi", "location": {"lat": "63.1062211", "lng": "21.5925939"}}, {"title": "RESTAURANG ALEXANDER", "address": "PB 311, STRANDGATAN 2, 65101 VAASA", "website": "", "location": {"lat": "63.098353", "lng": "21.601044"}}, {"title": "RESTAURANG W33", "address": "WOLFFSKAV\u00c4GEN 33, 65200 VAASA", "website": "", "location": {"lat": "63.10561735", "lng": "21.5954495785846"}}, {"title": "VAASAN KESKUSSAIRAALAN RUOKASALI", "address": "HIETALAHDENKATU 2-4, 65130 VAASA", "website": "", "location": {"lat": "63.0862529", "lng": "21.6148902"}}, {"title": "CARELIA/IT\u00c4-SUOMEN YLIOPISTO (0417)", "address": "YLIOPISTOKATU 4, 80100 JOENSUU", "website": "http://www.fazerfoodco.fi/carelia", "location": {"lat": "62.6043355", "lng": "29.7439531"}, "lunchUrl": "https://www.fazerfoodco.fi/modules/json/json/Index?costNumber=0417&language=fi"}, {"title": "JAKELUPISTE BOREALIS / IT\u00c4-SUOMEN OY (0423)", "address": "YLIOPISTOKATU 7, 80100 JOENSUU", "website": "https://www.fazerfoodco.fi/futura", "location": {"lat": "62.6040461", "lng": "29.7416137"}, "lunchUrl": "https://www.fazerfoodco.fi/modules/json/json/Index?costNumber=041702&language=fi"}, {"title": "JAKELUPISTE FUTURA IT\u00c4-SUOMEN YO JOENSUUN KAMPUS (0420)", "address": "YLIOPISTOKATU 7, 80100 JOENSUU", "website": "http://www.fazerfoodco.fi/futura", "location": {"lat": "62.6040461", "lng": "29.7416137"}, "lunchUrl": "https://www.fazerfoodco.fi/modules/json/json/Index?costNumber=041702&language=fi"}, {"title": "JAKELUPISTE JOENSUUN NORMAALIKOULU/L\u00c4NSIKADUN KOULU", "address": "TULLIPORTINKATU 1 A, 80100 JOENSUU", "website": "", "location": {"lat": "62.6051366", "lng": "29.7508637"}}, {"title": "POHJOIS-KARJALAN OPISTON OPPILASRUOKALA, HERKKUKELLARI", "address": "NIITTYLAHDENTIE 297, 82220 NIITTYLAHTI", "website": "", "location": {"lat": "62.507185", "lng": "29.8332985"}}, {"title": "RAVINTOLA ASKEL", "address": "K\u00c4YNTIOS. NOLJAKANTIE 17 C/0 NISKAKATU 21, JOENSUU, 80130 JOENSUU", "website": "", "location": {"lat": "62.61636", "lng": "29.723412"}}, {"title": "RAVINTOLA LOUHI", "address": "L\u00c4NSIKATU 15, 80110 JOENSUU", "website": "", "location": {"lat": "62.5980756", "lng": "29.7433485"}}, {"title": "RAVINTOLA NATURA (0421)", "address": "YLIOPISTOKATU 4, 80100 JOENSUU", "website": "https://www.fazerfoodco.fi/", "location": {"lat": "62.6043355", "lng": "29.7439531"}}, {"title": "RAVINTOLA POHJANTIKKA", "address": "TIKKAM\u00c4ENTIE 16, 80210 JOENSUU", "website": "", "location": {"lat": "62.5911159", "lng": "29.7775325"}}, {"title": "SOLINA KARELIA AMK TIKKARINTEEN KAMPUS (0424)", "address": "TIKKARINNE 9, 80200 JOENSUU", "website": "http://www.fazerfoodco.fi/solina", "location": {"lat": "62.5887027", "lng": "29.7791531"}, "lunchUrl": "https://www.fazerfoodco.fi/modules/json/json/Index?costNumber=0424&language=fi"}, {"title": "TORI36/VIRASTOTALO JOENSUU (0401)", "address": "TORIKATU 36, 80100 JOENSUU", "website": "http://www.fazerfoodco.fi/tori36", "location": {"lat": "62.6056346", "lng": "29.7679958"}, "lunchUrl": "https://www.fazerfoodco.fi/modules/json/json/Index?costNumber=0401&language=fi"}, {"title": "WIRE/KARELIA AMK W\u00c4RTSIL\u00c4N KAMPUS (0447)", "address": "KARJALANKATU 3, 80200 JOENSUU", "website": "http://www.fazerfoodco.fi/wire", "location": {"lat": "62.5966083", "lng": "29.7778976"}, "lunchUrl": "https://www.fazerfoodco.fi/modules/json/json/Index?costNumber=0447&language=fi"}, {"title": "KUUSAMO-OPISTO", "address": "KITKANTIE 35, 93600 KUUSAMO", "website": "http://www.kuusamo-opisto.fi", "location": {"lat": "65.9999231", "lng": "29.1520079"}}, {"title": "OPPILASRAVINTOLA SALVIA", "address": "OULANGANTIE 1, 93600 KUUSAMO", "website": "", "location": {"lat": "65.9622081", "lng": "29.1743612"}}, {"title": "", "address": ",  ", "website": "", "location": null}, {"title": "CARDIA. OULAISTEN TERVEYDENHUOLTO-OPPILAITOS (0233)", "address": "KUNTOTIE 2, 86300 OULAINEN", "website": "http://www.amica.fi/cardia", "location": {"lat": "64.26641435", "lng": "24.8476421748434"}, "lunchUrl": "https://www.fazerfoodco.fi/modules/json/json/Index?costNumber=0233&language=fi"}, {"title": "", "address": ",  ", "website": "", "location": null}, {"title": "ALWARI OAMK KONTINKANKAAN KAMPUS (0226)", "address": "KIVIHARJUNTIE 8, 90220 OULU", "website": "http://www.amica.fi/alwari", "location": {"lat": "65.0092519", "lng": "25.5069292"}, "lunchUrl": "https://www.fazerfoodco.fi/modules/json/json/Index?costNumber=0226&language=fi"}, {"title": "CAF\u00e9 HUB", "address": "PENTTI KAITERAN KATU 1, OVI T, 90014 OULUN YLIOPISTO", "website": "http://www.juvenes.fi", "location": {"lat": "65.057859", "lng": "25.464262"}}, {"title": "KOTKANPOIKA OAMK KOTKANTIEN KAMPUS (0235)", "address": "KOTKANTIE 1, 90250 OULU", "website": "http://www.kotkanpoika&kultturelli@amica.fi", "location": {"lat": "64.9997475", "lng": "25.5101746202248"}}, {"title": "NETTIKAHVILA", "address": "AAPISTIE 7, 90014 OULUN YLIOPISTO", "website": "http://www.uniresta.fi", "location": {"lat": "65.058101", "lng": "25.468862"}}, {"title": "ODL KANTAKORTTELI (1694)", "address": "ALBERTINKATU 16, 90100 OULU", "website": "http://www.fazerfoodco.fi/kantakortteli", "location": {"lat": "65.0090225", "lng": "25.4702821"}, "lunchUrl": "https://www.fazerfoodco.fi/modules/json/json/Index?costNumber=1694&language=fi"}, {"title": "OULUN NORMAALIKOULU ALA-ASTE LINNANMAA(237)", "address": "YLIOPISTONKATU 48, 90570 OULU", "website": "http://www.amica.fi/oulunnormaalikoulu", "location": {"lat": "65.062246", "lng": "25.473747"}, "lunchUrl": "https://www.fazerfoodco.fi/modules/json/json/Index?costNumber=0237&language=fi"}, {"title": "OULUN YLIOPISTOLLINEN SAIRAALA", "address": "PL 50, 90029 OYS", "website": "http://www.ppshp.fi/ravintolapalvelut/", "location": {"lat": "32.138944", "lng": "-81.626907"}}, {"title": "OULUN YO:N HARJOITTELUKOULU (0242) KOSKELAN YKSIKK\u00d6", "address": "TULLIMIEHENKATU 8, 90560 OULU", "website": "https://www.fazerfoodco.fi/", "location": {"lat": "65.0452661", "lng": "25.4466724"}}, {"title": "RAVINTOLA KASTARI", "address": "PENTTI KAITERAN KATU 1, 90014 OULUN YLIOPISTO", "website": "http://www.uniresta.fi", "location": {"lat": "65.057859", "lng": "25.464262"}}, {"title": "RAVINTOLA MEDISIINA", "address": "AAPISTIE 5 A, 90014 OULUN YLIOPISTO", "website": "http://www.uniresta.fi", "location": {"lat": "62.192051", "lng": "25.718394"}}, {"title": "RAVINTOLA PRELUDI", "address": "LEEVI MADETOJAN KATU 1-3, 90140 OULU", "website": "http://www.uniresta.fi", "location": {"lat": "65.002399", "lng": "25.4798776"}}, {"title": "RAVINTOLA VANILLA", "address": "TORIKATU 34-40, 90100 OULU", "website": "http://www.uniresta.fi", "location": {"lat": "65.0145083", "lng": "25.4715178"}}, {"title": "RESTAURANT FOOBAR", "address": "PENTTI KAITERAN KATU 1, OVI R, 90014 OULUN YLIOPISTO", "website": "http://www.juvenes.fi", "location": {"lat": "65.057859", "lng": "25.464262"}}, {"title": "RESTAURANT FOODOO", "address": "PENTTI KAITERAN KATU 1, OVI A, 90014 OULUN YLIOPISTO", "website": "http://www.juvenes.fi", "location": {"lat": "65.057859", "lng": "25.464262"}}, {"title": "RESTAURANT KYLYM\u00c4", "address": "PENTTI KAITERAN KATU 1, OVI E, 90014 OULUN YLIOPISTO", "website": "http://www.juvenes.fi", "location": {"lat": "66.370186", "lng": "29.311749"}}, {"title": "RESTAURANT MARA", "address": "PENTTI KAITERAN KATU 1, OVI C, 90014 OULUN YLIOPISTO", "website": "http://www.juvenes.fi", "location": {"lat": "65.057859", "lng": "25.464262"}}, {"title": "RESTAURANT NAPA", "address": "PENTTI KAITERAN KATU 1, OVI T, 90014 OULUN YLIOPISTO", "website": "http://www.juvenes.fi", "location": {"lat": "65.057859", "lng": "25.464262"}}, {"title": "WALLU (0217)", "address": "TEUVO PAKKALAN KATU 19, 90130 OULU", "website": "http://www.amica.fi/wallu", "location": {"lat": "65.00658405", "lng": "25.4916036213585"}}, {"title": "MESSI/KPAMK YLIVIESKAN YKSIKK\u00d6 TEKNIIKKA (3565)", "address": "VIERIMAANTIE 7, 84100 YLIVIESKA", "website": "http://www.amica.fi/messi", "location": {"lat": "64.0750627", "lng": "24.5167409"}, "lunchUrl": "https://www.fazerfoodco.fi/modules/json/json/Index?costNumber=3565&language=fi"}, {"title": "RAUDASKYL\u00c4N KRISTILLISEN OPISTON RAVINTOLA", "address": "OPISTONTIE 4-6, 84880 YLIVIESKA", "website": "http://rko.cop.fi", "location": {"lat": "64.005723", "lng": "24.7468814"}}, {"title": "SAVONIA AMK IISALMI HAUKISAARENTIE (0455)", "address": "HAUKISAARENTIE 2, 74130 IISALMI", "website": "http://www.fazerfoodco.fi/savoniaiisalmi", "location": {"lat": "63.5419784", "lng": "27.2170614"}, "lunchUrl": "https://www.fazerfoodco.fi/modules/json/json/Index?costNumber=0455&language=fi"}, {"title": "YL\u00c4-SAVON AMMATTIOPISTO/PELTOSALMEN YKSIKK\u00d6", "address": "KOTIKYL\u00c4NTIE 254, 74100 IISALMI", "website": "", "location": {"lat": "63.4758049", "lng": "27.1977306"}}, {"title": "AMICA-RAVINTOLA CANTHIA (0436)", "address": "YLIOPISTONRANTA 1 C, B PORRAS, 70210 KUOPIO", "website": "https://www.fazerfoodco.fi/", "location": {"lat": "62.893876", "lng": "27.639924"}}, {"title": "ANTELL RAVINTOLA ROUND JA BISTRO", "address": "MICROKATU 1, 70210 KUOPIO", "website": "http://www.antell.fi", "location": {"lat": "62.8889982", "lng": "27.6294275"}}, {"title": "HILIMA 6809", "address": "KYS RAK1 T-K\u00c4YT\u00c4V\u00c4 PUIJONLAAKSONTIE 2, 70210 KUOPIO", "website": "", "location": {"lat": "62.856937", "lng": "27.648468"}}, {"title": "JAKELUPISTE (0442) MEDITEKNIA. IT\u00c4-SUOMEN YLIOPISTO", "address": "HARJULANTIE 1, 70210 KUOPIO", "website": "https://www.fazerfoodco.fi/mediteknia", "location": {"lat": "62.895913", "lng": "27.640165"}, "lunchUrl": "https://www.fazerfoodco.fi/modules/json/json/Index?costNumber=0442&language=fi"}, {"title": "KAARRE 6810", "address": "KYS RAK 2, 1KRS PUIJONALAAKSONTIE 2, 70210 KUOPIO", "website": "", "location": {"lat": "62.625438", "lng": "27.125554"}}, {"title": "KUOPION MUSIIKKIKESKUKSEN RAVINTOLA", "address": "KUOPIONLAHDENKATU 23, 70100 KUOPIO", "website": "http://www.kanresta.fi", "location": {"lat": "62.88827615", "lng": "27.6788805969376"}}, {"title": "OPISKELIJARAVINTOLA KOIVUKOKKI", "address": "KANSANOPISTOTIE 32, 70800 KUOPIO", "website": "http://www.psko.fi", "location": {"lat": "62.8157333", "lng": "27.6263554"}}, {"title": "RAVINTOKESKUS", "address": "NIUVANKUJA 65, 70240 KUOPIO", "website": "", "location": {"lat": "62.9107166", "lng": "27.6257935"}}, {"title": "SAVONIA AMK", "address": "OPISTOTIE 2, 70200 KUOPIO", "website": "http://www.sodexo.fi", "location": {"lat": "62.8979601", "lng": "27.663552575823"}}, {"title": "SAVOTALO 6812", "address": "TULLIPORTINKATU 17, 70700 KUOPIO", "website": "", "location": {"lat": "62.8937051", "lng": "27.6853332"}}, {"title": "SNELLMANIA. IT\u00c4-SUOMEN YO KUOPIN KAMPUS (0437)", "address": "YLIOPISTONRANTA 1 E, 70210 KUOPIO", "website": "http://www.fazerfoodco.fi/snellmania", "location": {"lat": "62.891565", "lng": "27.632989"}, "lunchUrl": "https://www.fazerfoodco.fi/modules/json/json/Index?costNumber=0437&language=fi"}, {"title": "TIETOTEKNIA (0439)", "address": "SAVILAHDENTIE 6 L 4, 70210 KUOPIO", "website": "http://www.fazerfoodco.fi/tietoteknia", "location": {"lat": "62.885299", "lng": "27.629538"}, "lunchUrl": "https://www.fazerfoodco.fi/modules/json/json/Index?costNumber=0439&language=fi"}, {"title": "LOUNASRAVINTOLA OSMAN HERKKU", "address": "OSMAJOENTIE 75 A, 78210 VARKAUS", "website": "", "location": {"lat": "62.3261649", "lng": "27.8528933"}}, {"title": "KASKELAN RUOKASALI", "address": "KASKELANTIE 10, 19120 VIERUM\u00c4KI", "website": "http://www.vierumaki.fi", "location": {"lat": "60.35918", "lng": "25.03741"}}, {"title": "M19 FOOD MARKET", "address": "MUKKULANKATU 19, 15210 LAHTI", "website": "", "location": {"lat": "61.0065283", "lng": "25.6639794"}}, {"title": "N73", "address": "NIEMENKATU 73, 15140 LAHTI", "website": "", "location": {"lat": "60.9924397", "lng": "25.6624465"}}, {"title": "RAVINTOLA ELLEN", "address": "ST\u00c5HLBERGINKATU 4 B, 15110 LAHTI", "website": "http://www.salpaus.fi/asiakaspalvelut/koo-kuppilat", "location": {"lat": "60.9852497", "lng": "25.6432123"}}, {"title": "HARJAVALLAN SAIRAALAN RUOKAPALVELUT", "address": "SAIRAALANTIE 14, 29200 HARJAVALTA", "website": "", "location": {"lat": "61.30117305", "lng": "22.1489886624937"}}, {"title": "HUITTISTEN AMMATTI- JA YRITT\u00c4J\u00c4OPISTO(3667)", "address": "RISTO RYTIN KATU 70, 32700 HUITTINEN", "website": "http://www.amica.fi/hirvenpaa", "location": {"lat": "61.179882", "lng": "22.7148933"}, "lunchUrl": "https://www.fazerfoodco.fi/modules/json/json/Index?costNumber=3667&language=fi"}, {"title": "ARKEA RAVINTOLA 100-ART", "address": "PAASIKIVENKATU 24, 38700 KANKAANP\u00c4\u00c4", "website": "", "location": {"lat": "61.8026456", "lng": "22.4002023"}}, {"title": "JUSTIINA/PORIN PALO- JA POLIISITALO (0560)", "address": "SATAKUNNANKATU 5, 28100 PORI", "website": "http://www.amica.fi/justiina", "location": {"lat": "61.4774332", "lng": "21.7921897"}, "lunchUrl": "https://www.fazerfoodco.fi/modules/json/json/Index?costNumber=0560&language=fi"}, {"title": "LOUNAS- JA JUHLAPALVELU PIKANTTI, RAV. PIHLAJASALI", "address": "METS\u00c4MIEHENKATU 2, 28500 PORI", "website": "", "location": {"lat": "61.47508295", "lng": "21.7767106274761"}}, {"title": "PORIN SAIRAALAN RAVINTOKESKUS", "address": "MAANTIEKATU 31, 28120 PORI", "website": "", "location": {"lat": "61.4862807", "lng": "21.7702298"}}, {"title": "RAVINTOLA SKENE JA CAF\u00e9 AGORA", "address": "SATAKUNNANKATU 25, 28130 PORI", "website": "http://www.juvenes.fi", "location": {"lat": "61.4773386", "lng": "21.7896427"}}, {"title": "SATAKUNNAN KESKUSSAIRAALAN HENKIL\u00d6ST\u00d6RAVINTOLA", "address": "SAIRAALANTIE 3, 28500 PORI", "website": "", "location": {"lat": "61.4734999", "lng": "21.7784444718207"}}, {"title": "SOFIA/PORIN YLIOPISTOKESKUS (3659)", "address": "SILTAPUISTOKATU 2, 28100 PORI", "website": "http://www.amica.fi/ravintolasofia", "location": {"lat": "61.4932946", "lng": "21.7989291"}, "lunchUrl": "https://www.fazerfoodco.fi/modules/json/json/Index?costNumber=3659&language=fi"}, {"title": "L\u00c4NSITUULI/OKL RAUMAN YKSIKK\u00d6 (0557)", "address": "SEMINAARINKATU 1, 26100 RAUMA", "website": "http://www.amica.fi/lansituuli", "location": {"lat": "61.13055875", "lng": "21.497761855037"}, "lunchUrl": "https://www.fazerfoodco.fi/modules/json/json/Index?costNumber=0557&language=fi"}, {"title": "OPISKELIJARAVINTOLA MESSI", "address": "SUOJANTIE 2, 26100 RAUMA", "website": "", "location": {"lat": "61.1261279", "lng": "21.4775749801356"}}, {"title": "OPISKELIJARAVINTOLA SOSTERI", "address": "STENIUKSENKATU 8, 26100 RAUMA", "website": "", "location": {"lat": "61.13087565", "lng": "21.5292498113051"}}, {"title": "RAVINTOLA KANALI", "address": "SATAMAKATU 26, 26100 RAUMA", "website": "http://www.juvenes.fi", "location": {"lat": "61.12774725", "lng": "21.4820949687763"}}, {"title": "STENIUKSEN KESKUSKEITTI\u00d6N HENKIL\u00d6ST\u00d6RAVINTOLA", "address": "STENIUKSENKATU 2, 26100 RAUMA", "website": "", "location": {"lat": "61.13063805", "lng": "21.5237614507769"}}, {"title": "SOSIAALIPALVELUJEN RUOKAPALVELUT", "address": "RAVANINTIE 359, 28450 VANHA-ULVILA", "website": "", "location": {"lat": "61.4349208", "lng": "21.8966699"}}, {"title": "AALTO KVARKKI", "address": "OTAKAARI 3, 02150 ESPOO", "website": "http://www.sodexo.fi", "location": {"lat": "60.1882535", "lng": "24.8300111"}}, {"title": "AALTO VALIMO (FI139389)", "address": "METALLIMIEHENKUJA 2, 02150 ESPOO", "website": "http://www.sodexo.fi", "location": {"lat": "60.182732", "lng": "24.8292365"}}, {"title": "AALTO-YLIOPISTO SODEXO KONETEKNIIKKA (FI137146)", "address": "OTAKAARI 4, 02150 ESPOO", "website": "http://www.sodexo.fi", "location": {"lat": "60.1870848", "lng": "24.8265576"}}, {"title": "AALTO-YO TIETOTEKNIIKANTALO (FI137147)/SUBWAY OTANIEMI", "address": "KONEMIEHENTIE 2, 02150 ESPOO", "website": "http://www.sodexo.fi", "location": {"lat": "60.1865844", "lng": "24.8224643"}}, {"title": "ALVARI/ AALTO YLIOPISTO (0190)", "address": "OTAKAARI 1 D, 02150 ESPOO", "website": "http://www.fazerfoodco.fi/alvari", "location": {"lat": "60.1857135", "lng": "24.8316494"}, "lunchUrl": "https://www.fazerfoodco.fi/modules/json/json/Index?costNumber=0190&language=fi"}, {"title": "BARLAUREA OPETUSRAVINTOLA", "address": "VANHA MAANTIE 9, 02650 ESPOO", "website": "", "location": {"lat": "60.22345625", "lng": "24.8053747215413"}}, {"title": "DIPOLI RAVINTOLAT, AALTO YLIOPISTO (3101)", "address": "OTAKAARI 24, 02150 ESPOO", "website": "http://www.fazerfoodco.fi/dipoli", "location": {"lat": "60.18558755", "lng": "24.824273298775"}, "lunchUrl": "https://www.fazerfoodco.fi/modules/json/json/Index?costNumber=3101&language=fi"}, {"title": "FAZER FOOD & CO. A BLOCK RAVINTOLA, AALTO METROKESKUS", "address": "OTANIEMENTIE 12, 02150 ESPOO", "website": "http://www.fazerfoodco.fi/abloc", "location": {"lat": "60.1851484", "lng": "24.8246542"}, "lunchUrl": "https://www.fazerfoodco.fi/modules/json/json/Index?costNumber=3087&language=fi"}, {"title": "JORVIN SAIRAALA, RUOKAPALVELUT", "address": "TURUNTIE 150, 02740 ESPOO", "website": "", "location": {"lat": "60.2216145", "lng": "24.6889548992214"}}, {"title": "KIPSARI (K\u00c4YNTIOS. OTANIEMENTIE 14, 02150 ESPOO)", "address": "C/O AALTO-YLIOPISTO, PL 31000, 00076 AALTO", "website": "", "location": {"lat": "60.184613", "lng": "24.827898"}}, {"title": "LAUREA AMK OTANIEMI", "address": "METS\u00c4NPOJANKUJA 3, 02130 ESPOO", "website": "", "location": {"lat": "60.186045", "lng": "24.80579988746"}}, {"title": "LOUNASRAVINTOLA/KAHVILA SUOLAHEIN\u00c4", "address": "KARVASM\u00c4ENTIE 4-6, 02740 ESPOO", "website": "", "location": {"lat": "60.2224086", "lng": "24.6839337"}}, {"title": "METROPOLIA AMMATTIKORKEAKOULU (3208)", "address": "KARAKAARENKUJA 6, 02610 ESPOO", "website": "", "location": {"lat": "60.2231877", "lng": "24.7583676318065"}}, {"title": "METROPOLIA VANHA MAANTIE", "address": "VANHA MAANTIE 6, 02650 ESPOO", "website": "http://www.sodexo.fi", "location": {"lat": "60.2211454", "lng": "24.8049016"}}, {"title": "STUDIO KIPSARI", "address": "OTAKAARI 7, 02150 ESPOO", "website": "", "location": {"lat": "60.18901965", "lng": "24.833356590708"}}, {"title": "TEKNOLOGF\u00d6RENINGEN", "address": "OTSV\u00c4NGEN 22, 02150 ESPOO", "website": "http://www.teknologforeningen.fi", "location": {"lat": "60.1860107", "lng": "24.8326676090183"}}, {"title": "TUAS-TALO/AALTO YLIOPISTO (0199)", "address": "MAARINTIE 8, 02150 ESPOO", "website": "http://www.fazerfoodco.fi/tuas", "location": {"lat": "60.1871687", "lng": "24.8187701805001"}, "lunchUrl": "https://www.fazerfoodco.fi/modules/json/json/Index?costNumber=0199&language=fi"}, {"title": "TV\u00c4RMINNEN EL\u00c4INTIETEELLINEN AS.", "address": "J.A. PALM\u00c9NIN TIE 260, 10900 HANKO", "website": "http://rontti.helsinki.fi/tvea/", "location": {"lat": "59.8444769", "lng": "23.2491875"}}, {"title": "ALPPICA/HDL (2123)", "address": "ALPPIKATU 2, 00530 HELSINKI", "website": "http://www.amica.fi/diakonissalaitos", "location": {"lat": "60.1857562", "lng": "24.9468756"}, "lunchUrl": "https://www.fazerfoodco.fi/modules/json/json/Index?costNumber=2123&language=fi"}, {"title": "ARCADA/YRKESH\u00d6GSKOLAN ARCADA (3003)", "address": "JAN-MAGNUS JANSSONSPLATS 1, 00550 HELSINKI", "website": "http://www.amica.fi/arcada", "location": {"lat": "60.201134", "lng": "24.9657424"}, "lunchUrl": "https://www.fazerfoodco.fi/modules/json/json/Index?costNumber=3003&language=fi"}, {"title": "AURORAN SAIRAALA, RAVINTOLA (9535200002)", "address": "NORDENSKI\u00d6LDINKATU 20, 00250 HELSINKI", "website": "https://www.hel.fi/palvelukeskus/fi/ateriapalvelut/", "location": {"lat": "60.1950342", "lng": "24.9271867966774"}}, {"title": "BIOMEDICUMIN PALVELUKEITTI\u00d6", "address": "HAARTMANINKATU 8, 00029 HUS", "website": "", "location": {"lat": "51.82272", "lng": "14.4034"}}, {"title": "CAFE KORONA", "address": "VIIKINKAARI 11, 00790 HELSINKI", "website": "", "location": {"lat": "60.2273463", "lng": "25.012731"}}, {"title": "DIAK KALASATAMA KAMPUS/DIAKONIA AMK(3104)", "address": "KYL\u00c4SAARENKUJA 2, 00580 HELSINKI", "website": "http://www.fazerfoodco.fi/diak-kalasatama", "location": {"lat": "60.1990818", "lng": "24.9692110270128"}}, {"title": "HERTTONIEMEN SAIRAALA, RAVINTOLA (9535200001)", "address": "KETTUTIE 8, 00800 HELSINKI", "website": "https://www.hel.fi/palvelukeskus/fi/ateriapalvelut/", "location": {"lat": "60.20741595", "lng": "25.0361685509973"}}, {"title": "IHO- JA ALLERGIASAIRAALA, PALVELUKEITTI\u00d6", "address": "MEILAHDENTIE 2, 3 KRS, 00029 HUS", "website": "", "location": {"lat": "51.82272", "lng": "14.4034"}}, {"title": "JAKELUPISTE BISTRO/OPETUSTALO", "address": "RATAPIHANTIE 13, 00520 HELSINKI", "website": "http://www.fazerfoodco.fi/opetustalo", "location": {"lat": "60.2016536", "lng": "24.9342093"}, "lunchUrl": "https://www.fazerfoodco.fi/modules/json/json/Index?costNumber=0083&language=fi"}, {"title": "JAMIPAJA/POP & JAZZ KONSERVATORIO(3007)", "address": "ARABIANKATU 2, 00560 HELSINKI", "website": "http://www.fazerfoodco.fi/jamipaja", "location": {"lat": "60.2073965", "lng": "24.9753929390977"}, "lunchUrl": "https://www.fazerfoodco.fi/modules/json/json/Index?costNumber=3007&language=fi"}, {"title": "KIRURGISEN SAIRAALAN PALVELUKEITTI\u00d6", "address": "KASARMIKATU 11-13, 00130 HELSINKI", "website": "", "location": {"lat": "60.16156485", "lng": "24.9493929532008"}}, {"title": "KIVEL\u00c4N RAVINTOKESKUS", "address": "SIBELIUKSENKATU 14, RAK. 6 (PL 9512), 00260 HELSINKI", "website": "https://www.hel.fi/palvelukeskus/fi/ateriapalvelut/", "location": {"lat": "60.20787", "lng": "24.99935"}}, {"title": "KOSKELAN MONIPUOLINEN PALVELUKESKUS", "address": "K\u00c4PYL\u00c4NTIE 11, 00600 HELSINKI", "website": "https://www.hel.fi/palvelukeskus/fi/ateriapalvelut/", "location": {"lat": "60.2157233", "lng": "24.96400675"}}, {"title": "LAAKSON SAIRAALA, RAVINTOLA (9535200002)", "address": "L\u00c4\u00c4K\u00c4RINKATU 8, 00250 HELSINKI", "website": "https://www.hel.fi/palvelukeskus/fi/ateriapalvelut/", "location": {"lat": "60.1907441", "lng": "24.9186978604984"}}, {"title": "MALMICA / PERHO LIIKETALOUSOPISTO (3092)", "address": "HIETAKUMMUNTIE 1 A, 00700 HELSINKI", "website": "http://www.amica.fi/malmica", "location": {"lat": "60.2495312", "lng": "25.0127391"}, "lunchUrl": "https://www.fazerfoodco.fi/modules/json/json/Index?costNumber=3092&language=fi"}, {"title": "MALMIN SAIRAALA, RAVINTOLA (9535200004)", "address": "TALVELANTIE 6, 00700 HELSINKI", "website": "https://www.hel.fi/palvelukeskus/fi/ateriapalvelut/", "location": {"lat": "60.2534533", "lng": "24.9984953002979"}}, {"title": "MEILAHTI, RUOKAPALVELUT", "address": "STENB\u00c4CKINKATU 9, 00029 HUS", "website": "", "location": {"lat": "51.82272", "lng": "14.4034"}}, {"title": "METROPOLIA H\u00c4MEENTIE", "address": "H\u00c4MEENTIE 161, 00560 HELSINKI", "website": "http://www.sodexo.fi", "location": {"lat": "60.21444545", "lng": "24.980658064505"}}, {"title": "METROPOLIA MYLLYPURO", "address": "MYLLYPURONTIE 1, 00920 HELSINKI", "website": "", "location": {"lat": "60.22362705", "lng": "25.0780124140173"}}, {"title": "METROPOLIA VANHA VIERTOTIE", "address": "VANHA VIIERTOTIE 23, 00350 HELSINKI", "website": "http://www.sodexo.fi", "location": {"lat": "60.212024", "lng": "24.881546"}}, {"title": "MUSIIKKITALON RAVINTOLA", "address": "MANNERHEIMINTIE 13 A, A, 00100 HELSINKI", "website": "", "location": {"lat": "60.1692419", "lng": "24.9396787"}}, {"title": "OSAKUNTABAARI", "address": "URHO KEKKOSEN KATU 4-6 D, 00100 HELSINKI", "website": "http://www.hamalais-osakunta.fi", "location": {"lat": "60.1684759", "lng": "24.9323458"}}, {"title": "P\u00c4\u00c4RAIDE/OPETUSTALO (0083)", "address": "RAUTATIEL\u00c4ISENKATU 5, 00520 HELSINKI", "website": "http://www.fazerfoodco.fi/opetustalo", "location": {"lat": "60.2018773", "lng": "24.9353841"}, "lunchUrl": "https://www.fazerfoodco.fi/modules/json/json/Index?costNumber=0083&language=fi"}, {"title": "RAVINTOLA CAFFELI (3407)", "address": "PAJUNIITYNTIE 11, 00320 HELSINKI", "website": "https://www.fazerfoodco.fi/caffeli", "location": {"lat": "60.2179279", "lng": "24.9065251"}, "lunchUrl": "https://www.fazerfoodco.fi/modules/json/json/Index?costNumber=3047&language=fi"}, {"title": "RAVINTOLA KONSERVATORIO", "address": "RUOHOLAHDENTORI 6, 00180 HELSINKI", "website": "https://ruoka.palmia.fi/fi/", "location": {"lat": "60.1622466", "lng": "24.9148484298538"}}, {"title": "RAVINTOLA LADONLUKKO (FI119179)", "address": "LATOKARTANONKAARI 9, 00790 HELSINKI", "website": "http://www.sodexo.fi", "location": {"lat": "60.2289819", "lng": "25.0184561"}}, {"title": "RAVINTOLA LUOVA", "address": "H\u00c4MEENTIE 135 D, 00560 HELSINKI", "website": "", "location": {"lat": "60.2038546", "lng": "24.9688544"}}, {"title": "RAVINTOLA SERPENS (YTHS)", "address": "T\u00d6\u00d6L\u00d6NKATU 37 A, 00260 HELSINKI", "website": "", "location": {"lat": "60.1774274", "lng": "24.9283695"}}, {"title": "RAVINTOLA TEMPO, TAIDEYLIOPISTON N-TALO", "address": "NERVANDERINKATU 13, 00101 HELSINKI", "website": "", "location": {"lat": "60.1739103", "lng": "24.9285928"}}, {"title": "RAVINTOLA VALKEA TALO (FI129274)", "address": "ILKANTIE 4, 00400 HELSINKI", "website": "http://www.sodexo.fi", "location": {"lat": "60.2216437", "lng": "24.9020798"}}, {"title": "SAVOR", "address": "ELIM\u00c4ENKATU 25-27, 00510 HELSINKI", "website": "", "location": {"lat": "60.1971663", "lng": "24.9481058"}}, {"title": "SUURSUON SAIRAALA, RAVINTOLA (9535200003)", "address": "SUURSUONLAITA 3 B, 00630 HELSINKI", "website": "https://www.hel.fi/palvelukeskus/fi/ateriapalvelut/", "location": {"lat": "60.2342498", "lng": "24.9314857"}}, {"title": "SVENSKA HANDELSH\u00d6GSKOLAN (3406)", "address": "ARKADIANKATU 22, 00100 HELSINKI", "website": "https://www.fazerfoodco.fi/hanken", "location": {"lat": "60.1711596", "lng": "24.9242355"}, "lunchUrl": "https://www.fazerfoodco.fi/modules/json/json/Index?costNumber=3406&language=fi"}, {"title": "TEATTERIKORKEAKOULU (3067)", "address": "HAAPANIEMENKATU 6, 00530 HELSINKI", "website": "http://www.fazerfoodco.fi/teatterikorkeakoulu", "location": {"lat": "60.18140235", "lng": "24.9594425090453"}}, {"title": "T\u00c4HK\u00c4/ HELSINGIN YLIOPISTO (0061)", "address": "KOETILANTIE 7, 00790 HELSINKI", "website": "http://www.amica.fi/tahka", "location": {"lat": "60.2229983", "lng": "25.0193053"}, "lunchUrl": "https://www.fazerfoodco.fi/modules/json/json/Index?costNumber=0061&language=fi"}, {"title": "T\u00d6\u00d6L\u00d6N SAIRAALA, RUOKAPALVELUT", "address": "TOPELIUKSENKATU 5, 00029 HUS", "website": "", "location": {"lat": "51.82272", "lng": "14.4034"}}, {"title": "UNICAFE BIOKESKUS", "address": "VIIKINKAARI 9, 00790 HELSINKI", "website": "", "location": {"lat": "60.2270409", "lng": "25.014129"}}, {"title": "UNICAFE CHEMICUM", "address": "A. I. VIRTASEN AUKIO 1, 00560 HELSINKI", "website": "", "location": {"lat": "60.2055999", "lng": "24.9639498"}}, {"title": "UNICAFE EXACTUM", "address": "GUSTAF H\u00c4LLSTR\u00d6MIN KATU 2, 00560 HELSINKI", "website": "", "location": {"lat": "60.2048979", "lng": "24.9628913"}}, {"title": "UNICAFE MEILAHTI", "address": "HAARTMANINKATU 3, 00290 HELSINKI", "website": "", "location": {"lat": "60.1901726", "lng": "24.9094805"}}, {"title": "UNICAFE METS\u00c4TALO", "address": "FABIANINKATU 39, 00170 HELSINKI", "website": "", "location": {"lat": "60.171809", "lng": "24.9490329"}}, {"title": "UNICAFE OLIVIA", "address": "SILTAVUORENPENGER 20 R, 00170 HELSINKI", "website": "", "location": {"lat": "60.175122", "lng": "24.9545739"}}, {"title": "UNICAFE PHYSICUM", "address": "GUSTAF H\u00c4LLSTR\u00d6MIN KATU 2, 00560 HELSINKI", "website": "", "location": {"lat": "60.2048979", "lng": "24.9628913"}}, {"title": "UNICAFE PORTHANIA & PORTAALI", "address": "YLIOPISTONKATU 3, 00170 HELSINKI", "website": "", "location": {"lat": "60.17029575", "lng": "24.9484076540097"}}, {"title": "UNICAFE P\u00c4\u00c4RAKENNUS & FREDRIKA", "address": "FABIANINKATU 33, 00170 HELSINKI", "website": "", "location": {"lat": "60.1703007", "lng": "24.9537675"}}, {"title": "UNICAFE ROTUNDA", "address": "UNIONINKATU 36, 00170 HELSINKI", "website": "", "location": {"lat": "60.1703427", "lng": "24.950251915088"}}, {"title": "UNICAFE RUSKEASUO", "address": "KYT\u00d6SUONTIE 9, 00300 HELSINKI", "website": "", "location": {"lat": "60.2057513", "lng": "24.8972744"}}, {"title": "UNICAFE SOC & KOM", "address": "SNELLMANNINKATU 12, 00170 HELSINKI", "website": "", "location": {"lat": "60.20787", "lng": "24.99935"}}, {"title": "UNICAFE TOPELIAS", "address": "UNIONINKATU 38, 00170 HELSINKI", "website": "", "location": {"lat": "60.1720173", "lng": "24.9503911"}}, {"title": "UNICAFE VIIKUNA", "address": "AGNES SJ\u00d6BERGIN KATU 2, 00790 HELSINKI", "website": "", "location": {"lat": "60.2295647", "lng": "25.0214932"}}, {"title": "UNICAFE YLIOPPILASAUKIO", "address": "MANNERHEIMINTIE 3 B, 00100 HELSINKI", "website": "", "location": {"lat": "60.1691803", "lng": "24.940796"}}, {"title": "HYVINK\u00c4\u00c4N SAIRAALAN LOUNASRAVINTOLA", "address": "SAIRAALANKATU 1, 05850 HYVINK\u00c4\u00c4", "website": "", "location": {"lat": "60.61003545", "lng": "24.8293672453159"}}, {"title": "RP LAUREA HYVINK\u00c4\u00c4", "address": "UUDENMAANKATU 22, 05800 HYVINK\u00c4\u00c4", "website": "", "location": {"lat": "60.6296868", "lng": "24.8580507"}}, {"title": "ATERIAKEIDAS, KEUDA", "address": "SIBELIUKSENV\u00c4YL\u00c4 55, 04400 J\u00c4RVENP\u00c4\u00c4", "website": "", "location": {"lat": "60.4689223", "lng": "25.0867135"}}, {"title": "TY\u00d6V\u00c4EN AKATEMIAN OPISKELIJARAVINTOLA", "address": "VANHA TURUNTIE 14, 02700 KAUNIAINEN", "website": "", "location": {"lat": "60.2220893", "lng": "24.7115326"}}, {"title": "OPISKELIJA- JA TILAUSRAVINTOLA BREIKKI", "address": "KESKIKATU 3 A, 04200 KERAVA", "website": "", "location": {"lat": "60.4052576", "lng": "25.0976915"}}, {"title": "LOHJAN SAIRAALA, RUOKAPALVELUT", "address": "SAIRAALATIE 8, 08200 LOHJA", "website": "", "location": {"lat": "60.22347775", "lng": "24.0176515671213"}}, {"title": "NUMMENTIEN OPISKELIJARAVINTOLA", "address": "NUMMENTIE 6, 08100 LOHJA", "website": "", "location": {"lat": "60.2514579", "lng": "24.0734776"}}, {"title": "KEUDA M\u00c4NTS\u00c4L\u00c4, LUSIKKALINNA OP. RAVINTOLA", "address": "PARONINKUJA 20, 04920 SAARENTAUS", "website": "", "location": {"lat": "60.739217", "lng": "25.423863"}}, {"title": "KILJAVAN OPISTON LOUNASRAVINTOLA", "address": "KOTORANNANTIE 49, 05250 KILJAVA", "website": "http://www.kio.fi", "location": {"lat": "60.510148", "lng": "24.69416"}}, {"title": "PORVOO CAMPUS", "address": "TAIDETEHTAANKATU 1, 06100 PORVOO", "website": "", "location": {"lat": "60.3876702", "lng": "25.6551519"}}, {"title": "PORVOON SAIRAALA, RUOKAPALVELUT", "address": "SAIRAALANTIE 1, 06150 PORVOO", "website": "", "location": {"lat": "60.3777814", "lng": "25.6970230657987"}}, {"title": "ATRIUM/YRKESH\u00d6GSKOLAN NOVIA (0189)", "address": "RASEBORGSV\u00c4GEN 9, 10600 TAMMISAARI", "website": "http://www.amica.fi/atrium", "location": {"lat": "59.9756934", "lng": "23.4516604"}, "lunchUrl": "https://www.fazerfoodco.fi/modules/json/json/Index?costNumber=0189&language=fi"}, {"title": "L\u00c4NSI-UUDENMAAN SAIRAANHOITOALUE, RUOKAPALVELUT", "address": "IT\u00c4INEN RANTAKATU 9, 10600 TAMMISAARI", "website": "", "location": {"lat": "59.972814", "lng": "23.4361004"}}, {"title": "TAMMIHARJUN SAIRAALA", "address": "RAASEPORINTIE 37, 10600 TAMMISAARI", "website": "", "location": {"lat": "59.9754881", "lng": "23.4476601"}}, {"title": "KELLOKOSKEN SAIRAALAN RUOKAPALVELUT", "address": "VANHA VALTATIE 198, 04500 KELLOKOSKI", "website": "", "location": {"lat": "60.5161015", "lng": "25.0857211"}}, {"title": "LAUREA AMK TIKKURILA", "address": "RATATIE 22, 01300 VANTAA", "website": "", "location": {"lat": "60.2951028", "lng": "25.0433230466117"}}, {"title": "METROPOLIA LEIRITIE", "address": "LEIRITIE 1, 01600 VANTAA", "website": "http://www.sodexo.fi", "location": {"lat": "60.25667785", "lng": "24.848249847542"}}, {"title": "PEIJAKSEN SAIRAALA, RUOKAPALVELUT", "address": "SAIRAALAKATU 1, 01400 VANTAA", "website": "", "location": {"lat": "60.331531", "lng": "25.0593356472503"}}, {"title": "TRADERIA/KAUPPIAITTEN KAUPPAOPPILAITOS (3329)", "address": "MARTINLAAKSONTIE 36, 01620 VANTAA", "website": "", "location": {"lat": "60.2750743", "lng": "24.8458749"}}, {"title": "ARKEA/LOIMAAN SAIRAALAN HENKIL\u00d6ST\u00d6RAVINTOLA", "address": "SEPP\u00c4L\u00c4NKATU 15, 32200 LOIMAA", "website": "", "location": {"lat": "60.85205775", "lng": "23.0492244724941"}}, {"title": "KIILA/SALO IOT (3641)", "address": "JOENSUUNKATU 7, 24100 SALO", "website": "http://www.fazerfoodco.fi/saloiotcampusravintolat", "location": {"lat": "60.3882835", "lng": "23.1148762"}, "lunchUrl": "https://www.fazerfoodco.fi/modules/json/json/Index?costNumber=3641&language=fi"}, {"title": "AMICA/M\u00c4NTYM\u00c4EN RAVINTOKESKUS (0520)", "address": "LUOLAVUORENTIE 2, 20700 TURKU", "website": "http://www.amica.fi/mantymaki", "location": {"lat": "60.4362623", "lng": "22.2745617"}, "lunchUrl": "https://www.fazerfoodco.fi/modules/json/json/Index?costNumber=0520&language=fi"}, {"title": "ARKEA RAVINTOLA MAKUMESTA/KAHVILA MAKUPALA", "address": "ANNIKANPOLKU 9, 20610 TURKU", "website": "", "location": {"lat": "60.4468228", "lng": "22.3585640493909"}}, {"title": "ASSARIN ULLAKKO, KASVISRAVINTOLA BRYGGE", "address": "REHTORINPELLONKATU 4 A, 20500 TURKU", "website": "http://www.unica.fi", "location": {"lat": "60.4540018", "lng": "22.2881287"}}, {"title": "AURIGA, PORT CENTER (FI319259)", "address": "JUHANA HERTTUAN PUISTOKATU 21, 20100 TURKU", "website": "http://www.sodexo.fi", "location": {"lat": "60.4398042", "lng": "22.2261597"}}, {"title": "CAF\u00c9 ARKEN", "address": "FABRIKSGATAN 2, 20500 TURKU", "website": "http://www.abo.fi/karen/index.php?page=matlistor", "location": {"lat": "60.4572932", "lng": "22.2791147"}}, {"title": "CAF\u00c9 F\u00c4NRIKEN", "address": "F\u00c4NRIKSGATAN 3, 20500 TURKU", "website": "http://www.abo.fi/karen/index.php?page=matlistor", "location": {"lat": "60.4567479", "lng": "22.2819553"}}, {"title": "CAF\u00c9 GADOLINIA", "address": "PORTHANSGATAN 3-5, 20500 TURKU", "website": "http://www.abo.fi/karen/index.php?page=matlistor", "location": {"lat": "60.4535965", "lng": "22.2793528"}}, {"title": "CAF\u00c9 K\u00c5REN", "address": "TAVASTGATAN 22, 20500 TURKU", "website": "http://www.abo.fi/karen/index.php?page=matlistor", "location": {"lat": "60.4496397", "lng": "22.275915"}}, {"title": "DELICA/DELI", "address": "IT\u00c4INEN PITK\u00c4KATU 4, 20520 TURKU", "website": "http://www.unica.fi", "location": {"lat": "60.4489344", "lng": "22.2925587"}}, {"title": "KAHVILA MUUSA", "address": "LINNANKATU 54, 20100 TURKU", "website": "", "location": {"lat": "60.44022965", "lng": "22.244049348658"}}, {"title": "KASVISRAVINTOLA KEIDAS", "address": "UUDENMAANKATU 3, 20500 TURKU", "website": "", "location": {"lat": "60.44974925", "lng": "22.277990632821"}}, {"title": "MACCIAVELLI", "address": "ASSISTENTINKATU 5, 20500 TURKU", "website": "http://www.unica.fi", "location": {"lat": "60.45833045", "lng": "22.2851358347454"}}, {"title": "MEDISIINA D/FLAVORIA", "address": "KIINAMYLLYNKATU 10, 20520 TURKU", "website": "", "location": {"lat": "60.452291", "lng": "22.293317"}}, {"title": "OPISKELIJARAVINTOLA DATACITY (AMISTOTELES)", "address": "LEMMINK\u00c4ISENKATU 14-18 B, 20520 TURKU", "website": "http://www.turkuai.fi", "location": {"lat": "60.4484898", "lng": "22.2947742"}}, {"title": "RAVINTOLA DENTAL", "address": "LEMMINK\u00c4ISENKATU 2, 20520 TURKU", "website": "http://www.unica.fi", "location": {"lat": "60.449885", "lng": "22.2924267"}}, {"title": "RAVINTOLA GALILEI", "address": "VESILINNANTIE 3, 20500 TURKU", "website": "http://www.unica.fi", "location": {"lat": "60.4557793", "lng": "22.2855865"}}, {"title": "RAVINTOLA LINUS", "address": "JOUKAHAISENKATU 3, 20500 TURKU", "website": "", "location": {"lat": "60.4491285", "lng": "22.2963915"}}, {"title": "RAVINTOLA MONTTU JA CAF\u00e9 BISTRO", "address": "REHTORINPELLONKATU 3, 20500 TURKU", "website": "http://www.juvenes.fi", "location": {"lat": "60.45461785", "lng": "22.2894448492217"}}, {"title": "RAVINTOLA NUTRITIO", "address": "RUISKATU 8, 20720 TURKU", "website": "http://www.unica.fi", "location": {"lat": "60.4299", "lng": "22.2970242"}}, {"title": "RAVINTOLA OLD MILL (FI318478)", "address": "RUUKINKATU 2-4, 20540 TURKU", "website": "http://www.sodexo.fi", "location": {"lat": "60.4541453", "lng": "22.3059535"}}, {"title": "RAVINTOLA SIGYN", "address": "LINNANKATU 60, 20100 TURKU", "website": "", "location": {"lat": "60.4388781", "lng": "22.2404528"}}, {"title": "RAVINTOLA WANHA TALLI", "address": "HARJATTULANTIE 80, 20960 TURKU", "website": "http://www.paasikiviopisto.net", "location": {"lat": "60.37179745", "lng": "22.2913097"}}, {"title": "SALON SAIRAALAN RAVINTOLA", "address": "SAIRAALANTIE 9, SALO, 24130 SALO", "website": "", "location": {"lat": "60.3742486", "lng": "23.1247841"}}, {"title": "T-HENKIL\u00d6ST\u00d6RAVINTOLA SAVIRUUKKU", "address": "H\u00c4MEENTIE 11, TURKU, 20520 TURKU", "website": "", "location": {"lat": "60.4540688", "lng": "22.2957061038067"}}, {"title": "TEKNIKA/TURUN AMK (0509)", "address": "SEP\u00c4NKATU 1, 20700 TURKU", "website": "http://www.amica.fi/teknika", "location": {"lat": "60.44402425", "lng": "22.2688595866529"}, "lunchUrl": "https://www.fazerfoodco.fi/modules/json/json/Index?costNumber=0509&language=fi"}, {"title": "TOTTISALMI, TURUN YO-TERVEYSTALO", "address": "KIRKKOTIE 13, 20540 TURKU", "website": "http://www.unica.fi", "location": {"lat": "60.4564063", "lng": "22.2931975274868"}}, {"title": "TURUN AMK/LEMMINK\u00c4ISENKATU (FI319182)", "address": "LEMMINK\u00c4ISENKATU 30, 20520 TURKU", "website": "http://www.sodexo.fi", "location": {"lat": "60.44698935", "lng": "22.299455104284"}}, {"title": "TURUNMAAN SAIRAALA", "address": "KASKENKATU 13, TURKU, 20700 TURKU", "website": "", "location": {"lat": "60.44447515", "lng": "22.2745308136121"}}, {"title": "U-HENKIL\u00d6ST\u00d6RAVINTOLA", "address": "KIINAMYLLYNKATU 1-4, TURKU, 20500 TURKU", "website": "", "location": {"lat": "60.4524946", "lng": "22.2879674"}}, {"title": "VAKKA-SUOMEN SAIRAALAN RAVINTOLA", "address": "TERVEYSTIE 2, UUSIKAUPUNKI, 23500 UUSIKAUPUNKI", "website": "", "location": {"lat": "60.7968992", "lng": "21.4239351"}}]